{
  "type": "FeatureCollection",
  "generator": "overpass-ide",
  "copyright": "The data included in this document is from www.openstreetmap.org. The data is made available under ODbL.",
  "timestamp": "2018-04-29T00:11:02Z",
  "features": [
    {
      "type": "Feature",
      "properties": {
        "@id": "node/357544003",
        "ele": "0",
        "gnis:county_id": "081",
        "gnis:created": "01/23/1980",
        "gnis:feature_id": "942094",
        "gnis:state_id": "36",
        "leisure": "park",
        "name": "Jamaica Bay Wildlife Refuge",
        "wikidata": "Q6127271",
        "wikipedia": "en:Jamaica Bay Wildlife Refuge"
      },
      "geometry": {
        "type": "Point",
        "coordinates": [
          -73.8418015,
          40.6148267
        ]
      },
      "id": "node/357544003"
    },
    {
      "type": "Feature",
      "properties": {
        "@id": "node/357544377",
        "ele": "39",
        "gnis:county_id": "059",
        "gnis:created": "01/23/1980",
        "gnis:feature_id": "942242",
        "gnis:state_id": "36",
        "leisure": "park",
        "name": "John D. Caemmerer Park"
      },
      "geometry": {
        "type": "Point",
        "coordinates": [
          -73.650122,
          40.7645249
        ]
      },
      "id": "node/357544377"
    },
    {
      "type": "Feature",
      "properties": {
        "@id": "node/357544702",
        "ele": "34",
        "gnis:county_id": "059",
        "gnis:created": "01/23/1980",
        "gnis:feature_id": "942376",
        "gnis:state_id": "36",
        "leisure": "park",
        "name": "Allenwood Park"
      },
      "geometry": {
        "type": "Point",
        "coordinates": [
          -73.7223534,
          40.7956568
        ]
      },
      "id": "node/357544702"
    },
    {
      "type": "Feature",
      "properties": {
        "@id": "node/357544809",
        "ele": "7",
        "gnis:county_id": "047",
        "gnis:created": "01/23/1980",
        "gnis:feature_id": "942430",
        "gnis:state_id": "36",
        "leisure": "park",
        "name": "Amersfort Park"
      },
      "geometry": {
        "type": "Point",
        "coordinates": [
          -73.9387487,
          40.6289931
        ]
      },
      "id": "node/357544809"
    },
    {
      "type": "Feature",
      "properties": {
        "@id": "node/357545993",
        "ele": "17",
        "gnis:county_id": "061",
        "gnis:created": "01/23/1980",
        "gnis:feature_id": "942830",
        "gnis:state_id": "36",
        "leisure": "park",
        "name": "Baker Field",
        "wikidata": "Q34804359"
      },
      "geometry": {
        "type": "Point",
        "coordinates": [
          -73.9140253,
          40.8731554
        ]
      },
      "id": "node/357545993"
    },
    {
      "type": "Feature",
      "properties": {
        "@id": "node/357546870",
        "ele": "3",
        "gnis:county_id": "059",
        "gnis:created": "01/23/1980",
        "gnis:edited": "12/12/2005",
        "gnis:feature_id": "943081",
        "gnis:state_id": "36",
        "leisure": "park",
        "name": "Barrett Park"
      },
      "geometry": {
        "type": "Point",
        "coordinates": [
          -73.7029088,
          40.6459368
        ]
      },
      "id": "node/357546870"
    },
    {
      "type": "Feature",
      "properties": {
        "@id": "node/357547085",
        "ele": "2",
        "gnis:county_id": "059",
        "gnis:created": "01/23/1980",
        "gnis:feature_id": "943180",
        "gnis:state_id": "36",
        "leisure": "park",
        "name": "Baxter Pond Park"
      },
      "geometry": {
        "type": "Point",
        "coordinates": [
          -73.6976302,
          40.8339893
        ]
      },
      "id": "node/357547085"
    },
    {
      "type": "Feature",
      "properties": {
        "@id": "node/357548065",
        "ele": "22",
        "gnis:county_id": "059",
        "gnis:created": "01/23/1980",
        "gnis:feature_id": "943641",
        "gnis:state_id": "36",
        "leisure": "park",
        "name": "Belmont Park"
      },
      "geometry": {
        "type": "Point",
        "coordinates": [
          -73.7179091,
          40.7139914
        ]
      },
      "id": "node/357548065"
    },
    {
      "type": "Feature",
      "properties": {
        "@id": "node/357549999",
        "ele": "16",
        "gnis:county_id": "119",
        "gnis:created": "01/23/1980",
        "gnis:feature_id": "944538",
        "gnis:state_id": "36",
        "leisure": "park",
        "name": "Boyce Park"
      },
      "geometry": {
        "type": "Point",
        "coordinates": [
          -73.9031915,
          40.9264878
        ]
      },
      "id": "node/357549999"
    },
    {
      "type": "Feature",
      "properties": {
        "@id": "node/357550505",
        "ele": "18",
        "gnis:county_id": "059",
        "gnis:created": "01/23/1980",
        "gnis:feature_id": "944735",
        "gnis:state_id": "36",
        "leisure": "park",
        "name": "Brierley Park"
      },
      "geometry": {
        "type": "Point",
        "coordinates": [
          -73.6192952,
          40.7181571
        ]
      },
      "id": "node/357550505"
    },
    {
      "type": "Feature",
      "properties": {
        "@id": "node/357550763",
        "ele": "2",
        "gnis:county_id": "059",
        "gnis:created": "01/23/1980",
        "gnis:feature_id": "944829",
        "gnis:state_id": "36",
        "leisure": "park",
        "name": "Brook Road Park"
      },
      "geometry": {
        "type": "Point",
        "coordinates": [
          -73.7212427,
          40.6534369
        ]
      },
      "id": "node/357550763"
    },
    {
      "type": "Feature",
      "properties": {
        "@id": "node/357551112",
        "ele": "18",
        "gnis:county_id": "119",
        "gnis:created": "01/23/1980",
        "gnis:feature_id": "944979",
        "gnis:state_id": "36",
        "leisure": "park",
        "name": "Brush Park"
      },
      "geometry": {
        "type": "Point",
        "coordinates": [
          -73.8284673,
          40.8978773
        ]
      },
      "id": "node/357551112"
    },
    {
      "type": "Feature",
      "properties": {
        "@id": "node/357551782",
        "ele": "12",
        "gnis:county_id": "047",
        "gnis:created": "01/23/1980",
        "gnis:edited": "12/12/2007",
        "gnis:feature_id": "945331",
        "gnis:state_id": "36",
        "leisure": "park",
        "name": "Maria Hernandez Park",
        "wikidata": "Q6761260"
      },
      "geometry": {
        "type": "Point",
        "coordinates": [
          -73.9240261,
          40.7028806
        ]
      },
      "id": "node/357551782"
    },
    {
      "type": "Feature",
      "properties": {
        "@id": "node/357552159",
        "ele": "16",
        "gnis:county_id": "059",
        "gnis:created": "01/23/1980",
        "gnis:feature_id": "945707",
        "gnis:state_id": "36",
        "leisure": "park",
        "name": "Campbell Park"
      },
      "geometry": {
        "type": "Point",
        "coordinates": [
          -73.62624,
          40.6976019
        ]
      },
      "id": "node/357552159"
    },
    {
      "type": "Feature",
      "properties": {
        "@id": "node/357552232",
        "ele": "1",
        "gnis:county_id": "047",
        "gnis:created": "01/23/1980",
        "gnis:feature_id": "945747",
        "gnis:state_id": "36",
        "leisure": "park",
        "name": "Canarsie Park"
      },
      "geometry": {
        "type": "Point",
        "coordinates": [
          -73.8912474,
          40.6281598
        ]
      },
      "id": "node/357552232"
    },
    {
      "type": "Feature",
      "properties": {
        "@id": "node/357552319",
        "ele": "43",
        "gnis:county_id": "059",
        "gnis:created": "01/23/1980",
        "gnis:feature_id": "945797",
        "gnis:state_id": "36",
        "leisure": "park",
        "name": "Cantiague Park"
      },
      "geometry": {
        "type": "Point",
        "coordinates": [
          -73.5445702,
          40.771211
        ]
      },
      "id": "node/357552319"
    },
    {
      "type": "Feature",
      "properties": {
        "@id": "node/357552399",
        "ele": "32",
        "gnis:county_id": "059",
        "gnis:created": "01/23/1980",
        "gnis:feature_id": "945836",
        "gnis:state_id": "36",
        "leisure": "park",
        "name": "Carle Place Park"
      },
      "geometry": {
        "type": "Point",
        "coordinates": [
          -73.6020722,
          40.7489897
        ]
      },
      "id": "node/357552399"
    },
    {
      "type": "Feature",
      "properties": {
        "@id": "node/357554167",
        "ele": "31",
        "gnis:county_id": "081",
        "gnis:created": "01/23/1980",
        "gnis:edited": "01/17/2008",
        "gnis:feature_id": "946857",
        "gnis:state_id": "36",
        "leisure": "park",
        "name": "Grover Cleveland Park"
      },
      "geometry": {
        "type": "Point",
        "coordinates": [
          -73.9109702,
          40.7109359
        ]
      },
      "id": "node/357554167"
    },
    {
      "type": "Feature",
      "properties": {
        "@id": "node/357554497",
        "ele": "67",
        "gnis:county_id": "119",
        "gnis:created": "01/23/1980",
        "gnis:feature_id": "946987",
        "gnis:state_id": "36",
        "leisure": "park",
        "name": "Cochran Park"
      },
      "geometry": {
        "type": "Point",
        "coordinates": [
          -73.8870799,
          40.9345432
        ]
      },
      "id": "node/357554497"
    },
    {
      "type": "Feature",
      "properties": {
        "@id": "node/357554516",
        "ele": "12",
        "gnis:county_id": "059",
        "gnis:created": "01/23/1980",
        "gnis:feature_id": "946996",
        "gnis:state_id": "36",
        "leisure": "park",
        "name": "Coes Neck Park"
      },
      "geometry": {
        "type": "Point",
        "coordinates": [
          -73.6090173,
          40.6803798
        ]
      },
      "id": "node/357554516"
    },
    {
      "type": "Feature",
      "properties": {
        "@id": "node/357555511",
        "ele": "0",
        "gnis:county_id": "059",
        "gnis:created": "01/23/1980",
        "gnis:feature_id": "947590",
        "gnis:state_id": "36",
        "leisure": "park",
        "name": "Cow Meadow Preserve"
      },
      "geometry": {
        "type": "Point",
        "coordinates": [
          -73.5695723,
          40.6334358
        ]
      },
      "id": "node/357555511"
    },
    {
      "type": "Feature",
      "properties": {
        "@id": "node/357556054",
        "ele": "23",
        "gnis:county_id": "059",
        "gnis:created": "01/23/1980",
        "gnis:feature_id": "947969",
        "gnis:state_id": "36",
        "leisure": "park",
        "name": "Cutter Mill Park"
      },
      "geometry": {
        "type": "Point",
        "coordinates": [
          -73.7312427,
          40.7817682
        ]
      },
      "id": "node/357556054"
    },
    {
      "type": "Feature",
      "properties": {
        "@id": "node/357557832",
        "ele": "12",
        "gnis:county_id": "059",
        "gnis:created": "01/23/1980",
        "gnis:feature_id": "949351",
        "gnis:state_id": "36",
        "leisure": "park",
        "name": "Echo Park"
      },
      "geometry": {
        "type": "Point",
        "coordinates": [
          -73.6592964,
          40.6962133
        ]
      },
      "id": "node/357557832"
    },
    {
      "type": "Feature",
      "properties": {
        "@id": "node/357558000",
        "ele": "28",
        "gnis:county_id": "059",
        "gnis:created": "01/23/1980",
        "gnis:feature_id": "949444",
        "gnis:state_id": "36",
        "leisure": "park",
        "name": "Eisenhower Memorial Park"
      },
      "geometry": {
        "type": "Point",
        "coordinates": [
          -73.5651269,
          40.7328785
        ]
      },
      "id": "node/357558000"
    },
    {
      "type": "Feature",
      "properties": {
        "@id": "node/357558226",
        "ele": "11",
        "gnis:county_id": "059",
        "gnis:created": "01/23/1980",
        "gnis:feature_id": "949584",
        "gnis:state_id": "36",
        "leisure": "park",
        "name": "Elmont Road Park"
      },
      "geometry": {
        "type": "Point",
        "coordinates": [
          -73.7176314,
          40.6903807
        ]
      },
      "id": "node/357558226"
    },
    {
      "type": "Feature",
      "properties": {
        "@id": "node/357558856",
        "ele": "21",
        "gnis:county_id": "005",
        "gnis:created": "01/23/1980",
        "gnis:feature_id": "949783",
        "gnis:state_id": "36",
        "leisure": "park",
        "name": "Ewen Park"
      },
      "geometry": {
        "type": "Point",
        "coordinates": [
          -73.9101364,
          40.8817663
        ]
      },
      "id": "node/357558856"
    },
    {
      "type": "Feature",
      "properties": {
        "@id": "node/357559305",
        "ele": "30",
        "gnis:county_id": "119",
        "gnis:created": "01/23/1980",
        "gnis:feature_id": "949959",
        "gnis:state_id": "36",
        "leisure": "park",
        "name": "Feeny Park"
      },
      "geometry": {
        "type": "Point",
        "coordinates": [
          -73.7998554,
          40.9112104
        ]
      },
      "id": "node/357559305"
    },
    {
      "type": "Feature",
      "properties": {
        "@id": "node/357559655",
        "ele": "9",
        "gnis:county_id": "059",
        "gnis:created": "01/23/1980",
        "gnis:feature_id": "950092",
        "gnis:state_id": "36",
        "leisure": "park",
        "name": "Firemens Memorial Field"
      },
      "geometry": {
        "type": "Point",
        "coordinates": [
          -73.6881829,
          40.6714893
        ]
      },
      "id": "node/357559655"
    },
    {
      "type": "Feature",
      "properties": {
        "@id": "node/357559988",
        "ele": "28",
        "gnis:county_id": "059",
        "gnis:created": "01/23/1980",
        "gnis:feature_id": "950298",
        "gnis:state_id": "36",
        "leisure": "park",
        "name": "Floral Park Playground"
      },
      "geometry": {
        "type": "Point",
        "coordinates": [
          -73.6942973,
          40.7262132
        ]
      },
      "id": "node/357559988"
    },
    {
      "type": "Feature",
      "properties": {
        "@id": "node/357562291",
        "ele": "4",
        "gnis:county_id": "059",
        "gnis:created": "01/23/1980",
        "gnis:feature_id": "951519",
        "gnis:state_id": "36",
        "leisure": "park",
        "name": "Grant Park"
      },
      "geometry": {
        "type": "Point",
        "coordinates": [
          -73.6892974,
          40.6445478
        ]
      },
      "id": "node/357562291"
    },
    {
      "type": "Feature",
      "properties": {
        "@id": "node/357562455",
        "ele": "6",
        "gnis:county_id": "085",
        "gnis:created": "01/23/1980",
        "gnis:feature_id": "951634",
        "gnis:state_id": "36",
        "leisure": "park",
        "name": "Great Kills Park"
      },
      "geometry": {
        "type": "Point",
        "coordinates": [
          -74.1262534,
          40.548161
        ]
      },
      "id": "node/357562455"
    },
    {
      "type": "Feature",
      "properties": {
        "@id": "node/357562459",
        "ele": "2",
        "gnis:county_id": "059",
        "gnis:created": "01/23/1980",
        "gnis:feature_id": "951639",
        "gnis:state_id": "36",
        "leisure": "park",
        "name": "Great Neck Estates Park"
      },
      "geometry": {
        "type": "Point",
        "coordinates": [
          -73.7487432,
          40.7856572
        ]
      },
      "id": "node/357562459"
    },
    {
      "type": "Feature",
      "properties": {
        "@id": "node/357563050",
        "ele": "12",
        "gnis:county_id": "059",
        "gnis:created": "01/23/1980",
        "gnis:feature_id": "951952",
        "gnis:state_id": "36",
        "leisure": "park",
        "name": "Gunther Field"
      },
      "geometry": {
        "type": "Point",
        "coordinates": [
          -73.5461564,
          40.689291
        ]
      },
      "id": "node/357563050"
    },
    {
      "type": "Feature",
      "properties": {
        "@id": "node/357563150",
        "ele": "15",
        "gnis:county_id": "005",
        "gnis:created": "01/23/1980",
        "gnis:feature_id": "951981",
        "gnis:state_id": "36",
        "leisure": "park",
        "name": "Haffen Park"
      },
      "geometry": {
        "type": "Point",
        "coordinates": [
          -73.8395788,
          40.8734332
        ]
      },
      "id": "node/357563150"
    },
    {
      "type": "Feature",
      "properties": {
        "@id": "node/357563307",
        "ele": "8",
        "gnis:county_id": "059",
        "gnis:created": "01/23/1980",
        "gnis:feature_id": "952072",
        "gnis:state_id": "36",
        "leisure": "park",
        "name": "Halls Pond Park"
      },
      "geometry": {
        "type": "Point",
        "coordinates": [
          -73.6606854,
          40.688158
        ]
      },
      "id": "node/357563307"
    },
    {
      "type": "Feature",
      "properties": {
        "@id": "node/357563724",
        "ele": "32",
        "gnis:county_id": "119",
        "gnis:created": "01/23/1980",
        "gnis:feature_id": "952310",
        "gnis:state_id": "36",
        "leisure": "park",
        "name": "Hartley Park"
      },
      "geometry": {
        "type": "Point",
        "coordinates": [
          -73.8362453,
          40.9167658
        ]
      },
      "id": "node/357563724"
    },
    {
      "type": "Feature",
      "properties": {
        "@id": "node/357564130",
        "ele": "30",
        "gnis:county_id": "059",
        "gnis:created": "01/23/1980",
        "gnis:feature_id": "952567",
        "gnis:state_id": "36",
        "leisure": "park",
        "name": "Hemlock Playground"
      },
      "geometry": {
        "type": "Point",
        "coordinates": [
          -73.6254063,
          40.7384345
        ]
      },
      "id": "node/357564130"
    },
    {
      "type": "Feature",
      "properties": {
        "@id": "node/357564143",
        "ele": "5",
        "gnis:county_id": "059",
        "gnis:created": "01/23/1980",
        "gnis:feature_id": "952577",
        "gnis:state_id": "36",
        "leisure": "park",
        "name": "Hempstead Harbor Park"
      },
      "geometry": {
        "type": "Point",
        "coordinates": [
          -73.6565084,
          40.8297609
        ]
      },
      "id": "node/357564143"
    },
    {
      "type": "Feature",
      "properties": {
        "@id": "node/357564153",
        "ele": "1",
        "gnis:county_id": "059",
        "gnis:created": "01/23/1980",
        "gnis:feature_id": "952580",
        "gnis:state_id": "36",
        "leisure": "park",
        "name": "Hempstead Town Park"
      },
      "geometry": {
        "type": "Point",
        "coordinates": [
          -73.5895731,
          40.5892701
        ]
      },
      "id": "node/357564153"
    },
    {
      "type": "Feature",
      "properties": {
        "@id": "node/357564208",
        "ele": "13",
        "gnis:county_id": "059",
        "gnis:created": "01/23/1980",
        "gnis:feature_id": "952611",
        "gnis:state_id": "36",
        "leisure": "park",
        "name": "Henry Street Park"
      },
      "geometry": {
        "type": "Point",
        "coordinates": [
          -73.5954059,
          40.6803797
        ]
      },
      "id": "node/357564208"
    },
    {
      "type": "Feature",
      "properties": {
        "@id": "node/357564243",
        "ele": "77",
        "gnis:county_id": "085",
        "gnis:created": "01/23/1980",
        "gnis:feature_id": "952631",
        "gnis:state_id": "36",
        "leisure": "park",
        "name": "Hero Park"
      },
      "geometry": {
        "type": "Point",
        "coordinates": [
          -74.0873639,
          40.6303816
        ]
      },
      "id": "node/357564243"
    },
    {
      "type": "Feature",
      "properties": {
        "@id": "node/357564491",
        "ele": "48",
        "gnis:county_id": "081",
        "gnis:created": "01/23/1980",
        "gnis:feature_id": "952791",
        "gnis:state_id": "36",
        "leisure": "park",
        "name": "Highland Park"
      },
      "geometry": {
        "type": "Point",
        "coordinates": [
          -73.8898585,
          40.686492
        ]
      },
      "id": "node/357564491"
    },
    {
      "type": "Feature",
      "properties": {
        "@id": "node/357565940",
        "ele": "4",
        "gnis:county_id": "119",
        "gnis:created": "01/23/1980",
        "gnis:feature_id": "953542",
        "gnis:state_id": "36",
        "leisure": "park",
        "name": "Hutchinson Field"
      },
      "geometry": {
        "type": "Point",
        "coordinates": [
          -73.8187448,
          40.8978773
        ]
      },
      "id": "node/357565940"
    },
    {
      "type": "Feature",
      "properties": {
        "@id": "node/357566236",
        "ele": "3",
        "gnis:county_id": "059",
        "gnis:created": "01/23/1980",
        "gnis:feature_id": "953744",
        "gnis:state_id": "36",
        "leisure": "park",
        "name": "Inwood Park"
      },
      "geometry": {
        "type": "Point",
        "coordinates": [
          -73.7620771,
          40.6142712
        ]
      },
      "id": "node/357566236"
    },
    {
      "type": "Feature",
      "properties": {
        "@id": "node/357567736",
        "ele": "39",
        "gnis:county_id": "059",
        "gnis:created": "01/23/1980",
        "gnis:feature_id": "954448",
        "gnis:state_id": "36",
        "leisure": "park",
        "name": "Kelleher Field"
      },
      "geometry": {
        "type": "Point",
        "coordinates": [
          -73.64124,
          40.7656565
        ]
      },
      "id": "node/357567736"
    },
    {
      "type": "Feature",
      "properties": {
        "@id": "node/357567834",
        "ele": "19",
        "gnis:county_id": "059",
        "gnis:created": "01/23/1980",
        "gnis:feature_id": "954507",
        "gnis:state_id": "36",
        "leisure": "park",
        "name": "Kennedy Memorial Park"
      },
      "geometry": {
        "type": "Point",
        "coordinates": [
          -73.6117951,
          40.6998239
        ]
      },
      "id": "node/357567834"
    },
    {
      "type": "Feature",
      "properties": {
        "@id": "node/357568384",
        "ele": "40",
        "gnis:county_id": "085",
        "gnis:created": "01/23/1980",
        "gnis:feature_id": "954853",
        "gnis:state_id": "36",
        "leisure": "park",
        "name": "La Tourette Park"
      },
      "geometry": {
        "type": "Point",
        "coordinates": [
          -74.1426429,
          40.5823268
        ]
      },
      "id": "node/357568384"
    },
    {
      "type": "Feature",
      "properties": {
        "@id": "node/357568901",
        "ele": "1",
        "gnis:county_id": "085",
        "gnis:created": "01/23/1980",
        "gnis:feature_id": "955190",
        "gnis:state_id": "36",
        "leisure": "park",
        "name": "Lemon Creek Park"
      },
      "geometry": {
        "type": "Point",
        "coordinates": [
          -74.200144,
          40.5156613
        ]
      },
      "id": "node/357568901"
    },
    {
      "type": "Feature",
      "properties": {
        "@id": "node/357568912",
        "ele": "94",
        "gnis:county_id": "119",
        "gnis:created": "01/23/1980",
        "gnis:feature_id": "955196",
        "gnis:state_id": "36",
        "leisure": "park",
        "name": "Lennon Park"
      },
      "geometry": {
        "type": "Point",
        "coordinates": [
          -73.8879132,
          40.9478763
        ]
      },
      "id": "node/357568912"
    },
    {
      "type": "Feature",
      "properties": {
        "@id": "node/357569003",
        "ele": "13",
        "gnis:county_id": "081",
        "gnis:created": "01/23/1980",
        "gnis:edited": "11/02/2007",
        "gnis:feature_id": "955275",
        "gnis:state_id": "36",
        "leisure": "park",
        "name": "Detective Keith L Williams Park"
      },
      "geometry": {
        "type": "Point",
        "coordinates": [
          -73.7842999,
          40.702603
        ]
      },
      "id": "node/357569003"
    },
    {
      "type": "Feature",
      "properties": {
        "@id": "node/357569146",
        "ele": "3",
        "gnis:county_id": "059",
        "gnis:created": "01/23/1980",
        "gnis:feature_id": "955436",
        "gnis:state_id": "36",
        "leisure": "park",
        "name": "Lister Park",
        "phone": "1 (516) 678-9238"
      },
      "geometry": {
        "type": "Point",
        "coordinates": [
          -73.6551299,
          40.6548251
        ]
      },
      "id": "node/357569146"
    },
    {
      "type": "Feature",
      "properties": {
        "@id": "node/357570175",
        "ele": "2",
        "gnis:county_id": "047",
        "gnis:created": "01/23/1980",
        "gnis:feature_id": "956347",
        "gnis:state_id": "36",
        "leisure": "park",
        "name": "Manhattan Beach Park"
      },
      "geometry": {
        "type": "Point",
        "coordinates": [
          -73.9431932,
          40.5764941
        ]
      },
      "id": "node/357570175"
    },
    {
      "type": "Feature",
      "properties": {
        "@id": "node/357570639",
        "ele": "16",
        "gnis:county_id": "081",
        "gnis:created": "01/23/1980",
        "gnis:feature_id": "956583",
        "gnis:state_id": "36",
        "leisure": "park",
        "name": "Martin Field",
        "wikidata": "Q34846750"
      },
      "geometry": {
        "type": "Point",
        "coordinates": [
          -73.802356,
          40.7548242
        ]
      },
      "id": "node/357570639"
    },
    {
      "type": "Feature",
      "properties": {
        "@id": "node/357570662",
        "ele": "37",
        "gnis:county_id": "059",
        "gnis:created": "01/23/1980",
        "gnis:feature_id": "956590",
        "gnis:state_id": "36",
        "leisure": "park",
        "name": "Clinton J Matin Park"
      },
      "geometry": {
        "type": "Point",
        "coordinates": [
          -73.6867531,
          40.7563882
        ]
      },
      "id": "node/357570662"
    },
    {
      "type": "Feature",
      "properties": {
        "@id": "node/357570943",
        "ele": "5",
        "gnis:county_id": "047",
        "gnis:created": "01/23/1980",
        "gnis:edited": "12/12/2007",
        "gnis:feature_id": "956802",
        "gnis:state_id": "36",
        "leisure": "park",
        "name": "Ramirez Playground"
      },
      "geometry": {
        "type": "Point",
        "coordinates": [
          -73.9362487,
          40.7056583
        ]
      },
      "id": "node/357570943"
    },
    {
      "type": "Feature",
      "properties": {
        "@id": "node/357571146",
        "ele": "8",
        "gnis:county_id": "119",
        "gnis:created": "01/23/1980",
        "gnis:feature_id": "956937",
        "gnis:state_id": "36",
        "leisure": "park",
        "name": "Memorial Field"
      },
      "geometry": {
        "type": "Point",
        "coordinates": [
          -73.8170781,
          40.903155
        ]
      },
      "id": "node/357571146"
    },
    {
      "type": "Feature",
      "properties": {
        "@id": "node/357571314",
        "ele": "4",
        "gnis:county_id": "059",
        "gnis:created": "01/23/1980",
        "gnis:feature_id": "956996",
        "gnis:state_id": "36",
        "leisure": "park",
        "name": "Merrick Golf Course"
      },
      "geometry": {
        "type": "Point",
        "coordinates": [
          -73.5609609,
          40.6456578
        ]
      },
      "id": "node/357571314"
    },
    {
      "type": "Feature",
      "properties": {
        "@id": "node/357571621",
        "ele": "3",
        "gnis:county_id": "085",
        "gnis:created": "01/23/1980",
        "gnis:feature_id": "957307",
        "gnis:state_id": "36",
        "leisure": "park",
        "name": "Miller Field"
      },
      "geometry": {
        "type": "Point",
        "coordinates": [
          -74.0993083,
          40.5684384
        ]
      },
      "id": "node/357571621"
    },
    {
      "type": "Feature",
      "properties": {
        "@id": "node/357572065",
        "ele": "15",
        "gnis:county_id": "059",
        "gnis:created": "01/23/1980",
        "gnis:edited": "12/12/2005",
        "gnis:feature_id": "957669",
        "gnis:state_id": "36",
        "leisure": "park",
        "name": "Morgan Memorial Park"
      },
      "geometry": {
        "type": "Point",
        "coordinates": [
          -73.6545729,
          40.8650996
        ]
      },
      "id": "node/357572065"
    },
    {
      "type": "Feature",
      "properties": {
        "@id": "node/357572771",
        "ele": "1",
        "gnis:county_id": "061",
        "gnis:created": "01/23/1980",
        "gnis:edited": "10/01/2008",
        "gnis:feature_id": "958187",
        "gnis:state_id": "36",
        "leisure": "park",
        "name": "Murphy Park"
      },
      "geometry": {
        "type": "Point",
        "coordinates": [
          -73.9740275,
          40.7301021
        ]
      },
      "id": "node/357572771"
    },
    {
      "type": "Feature",
      "properties": {
        "@id": "node/357573219",
        "ele": "7",
        "gnis:county_id": "085",
        "gnis:created": "01/23/1980",
        "gnis:feature_id": "958459",
        "gnis:state_id": "36",
        "leisure": "park",
        "name": "New Springville Park"
      },
      "geometry": {
        "type": "Point",
        "coordinates": [
          -74.1715325,
          40.5964931
        ]
      },
      "id": "node/357573219"
    },
    {
      "type": "Feature",
      "properties": {
        "@id": "node/357573314",
        "ele": "3",
        "gnis:county_id": "059",
        "gnis:created": "01/23/1980",
        "gnis:feature_id": "958494",
        "gnis:state_id": "36",
        "leisure": "park",
        "name": "Newbridge Road Park"
      },
      "geometry": {
        "type": "Point",
        "coordinates": [
          -73.5353146,
          40.6535338
        ]
      },
      "id": "node/357573314"
    },
    {
      "type": "Feature",
      "properties": {
        "@id": "node/357574428",
        "ele": "4",
        "gnis:county_id": "059",
        "gnis:created": "01/23/1980",
        "gnis:feature_id": "958959",
        "gnis:state_id": "36",
        "leisure": "park",
        "name": "Northeast Park"
      },
      "geometry": {
        "type": "Point",
        "coordinates": [
          -73.5733108,
          40.6606624
        ]
      },
      "id": "node/357574428"
    },
    {
      "type": "Feature",
      "properties": {
        "@id": "node/357575194",
        "ele": "45",
        "gnis:county_id": "005",
        "gnis:created": "01/23/1980",
        "gnis:feature_id": "959285",
        "gnis:state_id": "36",
        "leisure": "park",
        "name": "Old Fort Park"
      },
      "geometry": {
        "type": "Point",
        "coordinates": [
          -73.9001361,
          40.8742665
        ]
      },
      "id": "node/357575194"
    },
    {
      "type": "Feature",
      "properties": {
        "@id": "node/357576550",
        "ele": "28",
        "gnis:county_id": "119",
        "gnis:created": "01/23/1980",
        "gnis:feature_id": "960123",
        "gnis:state_id": "36",
        "leisure": "park",
        "name": "Pelton Oval"
      },
      "geometry": {
        "type": "Point",
        "coordinates": [
          -73.8918023,
          40.9192657
        ]
      },
      "id": "node/357576550"
    },
    {
      "type": "Feature",
      "properties": {
        "@id": "node/357577720",
        "ele": "3",
        "gnis:county_id": "059",
        "gnis:created": "01/23/1980",
        "gnis:feature_id": "960901",
        "gnis:state_id": "36",
        "leisure": "park",
        "name": "Pond Park"
      },
      "geometry": {
        "type": "Point",
        "coordinates": [
          -73.741243,
          40.7812127
        ]
      },
      "id": "node/357577720"
    },
    {
      "type": "Feature",
      "properties": {
        "@id": "node/357581220",
        "ele": "9",
        "gnis:county_id": "005",
        "gnis:created": "01/23/1980",
        "gnis:feature_id": "961948",
        "gnis:state_id": "36",
        "leisure": "park",
        "name": "Pulaski Park"
      },
      "geometry": {
        "type": "Point",
        "coordinates": [
          -73.9245815,
          40.8051009
        ]
      },
      "id": "node/357581220"
    },
    {
      "type": "Feature",
      "properties": {
        "@id": "node/357581644",
        "ele": "15",
        "gnis:county_id": "059",
        "gnis:created": "01/23/1980",
        "gnis:feature_id": "962205",
        "gnis:state_id": "36",
        "leisure": "park",
        "name": "Rath Park"
      },
      "geometry": {
        "type": "Point",
        "coordinates": [
          -73.6712412,
          40.7031578
        ]
      },
      "id": "node/357581644"
    },
    {
      "type": "Feature",
      "properties": {
        "@id": "node/357581770",
        "ele": "5",
        "gnis:county_id": "047",
        "gnis:created": "01/23/1980",
        "gnis:feature_id": "962294",
        "gnis:state_id": "36",
        "leisure": "park",
        "name": "Red Hook Recreational Area"
      },
      "geometry": {
        "type": "Point",
        "coordinates": [
          -74.0051395,
          40.67177
        ]
      },
      "id": "node/357581770"
    },
    {
      "type": "Feature",
      "properties": {
        "@id": "node/357582787",
        "ele": "8",
        "gnis:county_id": "059",
        "gnis:created": "01/23/1980",
        "gnis:feature_id": "962870",
        "gnis:state_id": "36",
        "leisure": "park",
        "name": "Reverend Arthur Mackey Park"
      },
      "geometry": {
        "type": "Point",
        "coordinates": [
          -73.5735728,
          40.6832967
        ]
      },
      "id": "node/357582787"
    },
    {
      "type": "Feature",
      "properties": {
        "@id": "node/357582903",
        "ele": "29",
        "gnis:county_id": "059",
        "gnis:created": "01/23/1980",
        "gnis:feature_id": "962937",
        "gnis:state_id": "36",
        "leisure": "park",
        "name": "Roslyn Road Park"
      },
      "geometry": {
        "type": "Point",
        "coordinates": [
          -73.6366337,
          40.7545454
        ]
      },
      "id": "node/357582903"
    },
    {
      "type": "Feature",
      "properties": {
        "@id": "node/357584757",
        "ele": "38",
        "gnis:county_id": "005",
        "gnis:created": "01/23/1980",
        "gnis:feature_id": "963566",
        "gnis:state_id": "36",
        "leisure": "park",
        "name": "Saint James Park"
      },
      "geometry": {
        "type": "Point",
        "coordinates": [
          -73.8973583,
          40.8653777
        ]
      },
      "id": "node/357584757"
    },
    {
      "type": "Feature",
      "properties": {
        "@id": "node/357591185",
        "ele": "5",
        "gnis:county_id": "059",
        "gnis:created": "01/23/1980",
        "gnis:feature_id": "966359",
        "gnis:state_id": "36",
        "leisure": "park",
        "name": "Stepping Stone Park"
      },
      "geometry": {
        "type": "Point",
        "coordinates": [
          -73.7562433,
          40.8167677
        ]
      },
      "id": "node/357591185"
    },
    {
      "type": "Feature",
      "properties": {
        "@id": "node/357591782",
        "ele": "88",
        "gnis:county_id": "119",
        "gnis:created": "01/23/1980",
        "gnis:feature_id": "966748",
        "gnis:state_id": "36",
        "leisure": "park",
        "name": "Sullivan Oval"
      },
      "geometry": {
        "type": "Point",
        "coordinates": [
          -73.8876355,
          40.9284322
        ]
      },
      "id": "node/357591782"
    },
    {
      "type": "Feature",
      "properties": {
        "@id": "node/357591958",
        "ele": "58",
        "gnis:county_id": "119",
        "gnis:created": "01/23/1980",
        "gnis:feature_id": "966865",
        "gnis:state_id": "36",
        "leisure": "park",
        "name": "Sutherland Park"
      },
      "geometry": {
        "type": "Point",
        "coordinates": [
          -73.8937469,
          40.9203768
        ]
      },
      "id": "node/357591958"
    },
    {
      "type": "Feature",
      "properties": {
        "@id": "node/357592230",
        "ele": "4",
        "gnis:county_id": "059",
        "gnis:created": "01/23/1980",
        "gnis:feature_id": "967033",
        "gnis:state_id": "36",
        "leisure": "park",
        "name": "Tanglewood Preserve"
      },
      "geometry": {
        "type": "Point",
        "coordinates": [
          -73.6581854,
          40.6653805
        ]
      },
      "id": "node/357592230"
    },
    {
      "type": "Feature",
      "properties": {
        "@id": "node/357592933",
        "ele": "32",
        "gnis:county_id": "081",
        "gnis:created": "01/23/1980",
        "gnis:edited": "11/02/2007",
        "gnis:feature_id": "967529",
        "gnis:state_id": "36",
        "leisure": "park",
        "name": "Captain George H Tilly Park",
        "wikidata": "Q34814142"
      },
      "geometry": {
        "type": "Point",
        "coordinates": [
          -73.7990225,
          40.712325
        ]
      },
      "id": "node/357592933"
    },
    {
      "type": "Feature",
      "properties": {
        "@id": "node/357593209",
        "ele": "22",
        "gnis:county_id": "081",
        "gnis:created": "01/23/1980",
        "gnis:feature_id": "967680",
        "gnis:state_id": "36",
        "leisure": "park",
        "name": "Torsney Playground"
      },
      "geometry": {
        "type": "Point",
        "coordinates": [
          -73.9220816,
          40.7470463
        ]
      },
      "id": "node/357593209"
    },
    {
      "type": "Feature",
      "properties": {
        "@id": "node/357593347",
        "ele": "8",
        "gnis:county_id": "119",
        "gnis:created": "01/23/1980",
        "gnis:feature_id": "967797",
        "gnis:state_id": "36",
        "leisure": "park",
        "name": "Trevor Park"
      },
      "geometry": {
        "type": "Point",
        "coordinates": [
          -73.8970801,
          40.9537095
        ]
      },
      "id": "node/357593347"
    },
    {
      "type": "Feature",
      "properties": {
        "@id": "node/357593550",
        "ele": "27",
        "gnis:county_id": "059",
        "gnis:created": "01/23/1980",
        "gnis:feature_id": "967934",
        "gnis:state_id": "36",
        "leisure": "park",
        "name": "Tullamore Playground"
      },
      "geometry": {
        "type": "Point",
        "coordinates": [
          -73.6679076,
          40.7328795
        ]
      },
      "id": "node/357593550"
    },
    {
      "type": "Feature",
      "properties": {
        "@id": "node/357594098",
        "ele": "17",
        "gnis:county_id": "059",
        "gnis:created": "01/23/1980",
        "gnis:feature_id": "968231",
        "gnis:state_id": "36",
        "leisure": "park",
        "name": "Uniondale Park"
      },
      "geometry": {
        "type": "Point",
        "coordinates": [
          -73.5967947,
          40.697046
        ]
      },
      "id": "node/357594098"
    },
    {
      "type": "Feature",
      "properties": {
        "@id": "node/357594521",
        "ele": "33",
        "gnis:county_id": "081",
        "gnis:created": "01/23/1980",
        "gnis:feature_id": "968532",
        "gnis:state_id": "36",
        "leisure": "park",
        "name": "Victory Field"
      },
      "geometry": {
        "type": "Point",
        "coordinates": [
          -73.8529129,
          40.7014918
        ]
      },
      "id": "node/357594521"
    },
    {
      "type": "Feature",
      "properties": {
        "@id": "node/357594560",
        "ele": "64",
        "gnis:county_id": "059",
        "gnis:created": "01/23/1980",
        "gnis:feature_id": "968553",
        "gnis:state_id": "36",
        "leisure": "park",
        "name": "Village Park"
      },
      "geometry": {
        "type": "Point",
        "coordinates": [
          -73.7187424,
          40.7687127
        ]
      },
      "id": "node/357594560"
    },
    {
      "type": "Feature",
      "properties": {
        "@id": "node/357594564",
        "ele": "4",
        "gnis:county_id": "059",
        "gnis:created": "01/23/1980",
        "gnis:feature_id": "968554",
        "gnis:state_id": "36",
        "leisure": "park",
        "name": "Village Park"
      },
      "geometry": {
        "type": "Point",
        "coordinates": [
          -73.7517988,
          40.7973236
        ]
      },
      "id": "node/357594564"
    },
    {
      "type": "Feature",
      "properties": {
        "@id": "node/357594908",
        "ele": "2",
        "gnis:county_id": "059",
        "gnis:created": "01/23/1980",
        "gnis:edited": "09/05/2007",
        "gnis:feature_id": "968766",
        "gnis:state_id": "36",
        "leisure": "park",
        "name": "Wantagh County Park"
      },
      "geometry": {
        "type": "Point",
        "coordinates": [
          -73.5120707,
          40.6473239
        ]
      },
      "id": "node/357594908"
    },
    {
      "type": "Feature",
      "properties": {
        "@id": "node/357595825",
        "ele": "5",
        "gnis:county_id": "059",
        "gnis:created": "01/23/1980",
        "gnis:feature_id": "969843",
        "gnis:state_id": "36",
        "leisure": "park",
        "name": "Bay Park"
      },
      "geometry": {
        "type": "Point",
        "coordinates": [
          -73.664301,
          40.6278812
        ]
      },
      "id": "node/357595825"
    },
    {
      "type": "Feature",
      "properties": {
        "@id": "node/357597444",
        "ele": "12",
        "gnis:county_id": "085",
        "gnis:created": "01/23/1980",
        "gnis:feature_id": "971376",
        "gnis:state_id": "36",
        "leisure": "park",
        "name": "Willowbrook Park"
      },
      "geometry": {
        "type": "Point",
        "coordinates": [
          -74.1584767,
          40.6023263
        ]
      },
      "id": "node/357597444"
    },
    {
      "type": "Feature",
      "properties": {
        "@id": "node/357597478",
        "ele": "21",
        "gnis:county_id": "119",
        "gnis:created": "01/23/1980",
        "gnis:feature_id": "971394",
        "gnis:state_id": "36",
        "leisure": "park",
        "name": "Willsons Woods Park"
      },
      "geometry": {
        "type": "Point",
        "coordinates": [
          -73.8162447,
          40.9134325
        ]
      },
      "id": "node/357597478"
    },
    {
      "type": "Feature",
      "properties": {
        "@id": "node/357597668",
        "ele": "6",
        "gnis:county_id": "085",
        "gnis:created": "01/23/1980",
        "gnis:edited": "06/08/2007",
        "gnis:feature_id": "971586",
        "gnis:state_id": "36",
        "leisure": "park",
        "name": "Wolfes Pond Park"
      },
      "geometry": {
        "type": "Point",
        "coordinates": [
          -74.1929215,
          40.5217723
        ]
      },
      "id": "node/357597668"
    },
    {
      "type": "Feature",
      "properties": {
        "@id": "node/357598016",
        "ele": "37",
        "gnis:county_id": "059",
        "gnis:created": "01/23/1980",
        "gnis:feature_id": "971783",
        "gnis:state_id": "36",
        "leisure": "park",
        "name": "Wyngate Park"
      },
      "geometry": {
        "type": "Point",
        "coordinates": [
          -73.7206867,
          40.7878791
        ]
      },
      "id": "node/357598016"
    },
    {
      "type": "Feature",
      "properties": {
        "@id": "node/357598577",
        "ele": "2",
        "gnis:county_id": "059",
        "gnis:created": "01/23/1980",
        "gnis:edited": "12/12/2005",
        "gnis:feature_id": "973372",
        "gnis:state_id": "36",
        "leisure": "park",
        "name": "Camman's Pond County Park"
      },
      "geometry": {
        "type": "Point",
        "coordinates": [
          -73.5502654,
          40.6528166
        ]
      },
      "id": "node/357598577"
    },
    {
      "type": "Feature",
      "properties": {
        "@id": "node/357599317",
        "ele": "1",
        "gnis:county_id": "059",
        "gnis:created": "01/23/1980",
        "gnis:edited": "02/12/2007",
        "gnis:feature_id": "974385",
        "gnis:state_id": "36",
        "historic": "yes",
        "leisure": "park",
        "name": "Freeport Stadium (historical)"
      },
      "geometry": {
        "type": "Point",
        "coordinates": [
          -73.5695721,
          40.651491
        ]
      },
      "id": "node/357599317"
    },
    {
      "type": "Feature",
      "properties": {
        "@id": "node/357599530",
        "ele": "5",
        "gnis:county_id": "005",
        "gnis:created": "01/23/1980",
        "gnis:edited": "07/27/2005",
        "gnis:feature_id": "974835",
        "gnis:state_id": "36",
        "leisure": "park",
        "name": "Rice Memorial Stadium"
      },
      "geometry": {
        "type": "Point",
        "coordinates": [
          -73.8229011,
          40.8491077
        ]
      },
      "id": "node/357599530"
    },
    {
      "type": "Feature",
      "properties": {
        "@id": "node/357604658",
        "ele": "3",
        "gnis:county_id": "119",
        "gnis:created": "01/23/1980",
        "gnis:feature_id": "977344",
        "gnis:state_id": "36",
        "leisure": "park",
        "name": "Harbor Island Park"
      },
      "geometry": {
        "type": "Point",
        "coordinates": [
          -73.7320753,
          40.9450987
        ]
      },
      "id": "node/357604658"
    },
    {
      "type": "Feature",
      "properties": {
        "@id": "node/357607545",
        "ele": "43",
        "gnis:county_id": "119",
        "gnis:created": "07/11/2001",
        "gnis:feature_id": "1926989",
        "gnis:state_id": "36",
        "leisure": "park",
        "name": "H F Redmond Junior Memorial Park"
      },
      "geometry": {
        "type": "Point",
        "coordinates": [
          -73.8676349,
          40.9389876
        ]
      },
      "id": "node/357607545"
    },
    {
      "type": "Feature",
      "properties": {
        "@id": "node/357607551",
        "ele": "2",
        "gnis:county_id": "061",
        "gnis:created": "08/29/2001",
        "gnis:feature_id": "1934652",
        "gnis:state_id": "36",
        "leisure": "park",
        "name": "Ellis Island National Monument (Historical)"
      },
      "geometry": {
        "type": "Point",
        "coordinates": [
          -74.0393071,
          40.6992693
        ]
      },
      "id": "node/357607551"
    },
    {
      "type": "Feature",
      "properties": {
        "@id": "node/357607564",
        "ele": "21",
        "gnis:county_id": "081",
        "gnis:created": "01/01/2000",
        "gnis:feature_id": "1958095",
        "gnis:state_id": "36",
        "leisure": "park",
        "name": "Meadow Park",
        "wikidata": "Q34848458"
      },
      "geometry": {
        "type": "Point",
        "coordinates": [
          -73.8304123,
          40.7284357
        ]
      },
      "id": "node/357607564"
    },
    {
      "type": "Feature",
      "properties": {
        "@id": "node/357607736",
        "ele": "23",
        "gnis:county_id": "005",
        "gnis:created": "01/01/2000",
        "gnis:feature_id": "2042056",
        "gnis:state_id": "36",
        "leisure": "park",
        "name": "Lower Forecourt"
      },
      "geometry": {
        "type": "Point",
        "coordinates": [
          -73.9023583,
          40.8892662
        ]
      },
      "id": "node/357607736"
    },
    {
      "type": "Feature",
      "properties": {
        "@id": "node/357607739",
        "ele": "28",
        "gnis:county_id": "005",
        "gnis:created": "01/01/2000",
        "gnis:feature_id": "2042057",
        "gnis:state_id": "36",
        "leisure": "park",
        "name": "Upper Forecourt",
        "wikidata": "Q34867453"
      },
      "geometry": {
        "type": "Point",
        "coordinates": [
          -73.9020805,
          40.8895439
        ]
      },
      "id": "node/357607739"
    },
    {
      "type": "Feature",
      "properties": {
        "@id": "node/357607760",
        "ele": "22",
        "gnis:county_id": "061",
        "gnis:created": "08/17/2004",
        "gnis:feature_id": "2044306",
        "gnis:state_id": "36",
        "leisure": "park",
        "name": "Milstein Plaza",
        "wikidata": "Q34851331"
      },
      "geometry": {
        "type": "Point",
        "coordinates": [
          -73.9829166,
          40.7737124
        ]
      },
      "id": "node/357607760"
    },
    {
      "type": "Feature",
      "properties": {
        "@id": "node/357607815",
        "ele": "2",
        "gnis:county_id": "061",
        "gnis:created": "01/01/2000",
        "gnis:feature_id": "2057418",
        "gnis:state_id": "36",
        "leisure": "park",
        "name": "Fraunces Tavern Block Historic District"
      },
      "geometry": {
        "type": "Point",
        "coordinates": [
          -74.010973,
          40.7034359
        ]
      },
      "id": "node/357607815"
    },
    {
      "type": "Feature",
      "properties": {
        "@id": "node/357607821",
        "ele": "3",
        "gnis:county_id": "061",
        "gnis:created": "01/01/2000",
        "gnis:feature_id": "2057420",
        "gnis:state_id": "36",
        "leisure": "park",
        "name": "Stone Street Historic District"
      },
      "geometry": {
        "type": "Point",
        "coordinates": [
          -74.0104174,
          40.7042693
        ]
      },
      "id": "node/357607821"
    },
    {
      "type": "Feature",
      "properties": {
        "@id": "node/357607904",
        "ele": "1",
        "gnis:county_id": "061",
        "gnis:created": "01/01/2000",
        "gnis:feature_id": "2058381",
        "gnis:state_id": "36",
        "leisure": "park",
        "name": "South Street Seaport Historic District",
        "wikidata": "Q8561180"
      },
      "geometry": {
        "type": "Point",
        "coordinates": [
          -74.003195,
          40.7064915
        ]
      },
      "id": "node/357607904"
    },
    {
      "type": "Feature",
      "properties": {
        "@id": "node/357608159",
        "ele": "0",
        "gnis:county_id": "061",
        "gnis:created": "01/01/2000",
        "gnis:feature_id": "2060108",
        "gnis:state_id": "36",
        "leisure": "park",
        "name": "Pumphouse Park"
      },
      "geometry": {
        "type": "Point",
        "coordinates": [
          -74.0168065,
          40.7120468
        ]
      },
      "id": "node/357608159"
    },
    {
      "type": "Feature",
      "properties": {
        "@id": "node/357608164",
        "ele": "0",
        "gnis:county_id": "061",
        "gnis:created": "01/01/2000",
        "gnis:feature_id": "2060111",
        "gnis:state_id": "36",
        "leisure": "park",
        "name": "World Financial Center Plaza"
      },
      "geometry": {
        "type": "Point",
        "coordinates": [
          -74.016095,
          40.7133166
        ]
      },
      "id": "node/357608164"
    },
    {
      "type": "Feature",
      "properties": {
        "@id": "node/357608766",
        "ele": "84",
        "gnis:county_id": "119",
        "gnis:created": "01/01/2000",
        "gnis:feature_id": "2061678",
        "gnis:state_id": "36",
        "leisure": "park",
        "name": "Kinsley Park"
      },
      "geometry": {
        "type": "Point",
        "coordinates": [
          -73.8834686,
          40.9581539
        ]
      },
      "id": "node/357608766"
    },
    {
      "type": "Feature",
      "properties": {
        "@id": "node/357609053",
        "ele": "17",
        "gnis:county_id": "119",
        "gnis:created": "01/01/2000",
        "gnis:feature_id": "2061968",
        "gnis:state_id": "36",
        "leisure": "park",
        "name": "Maura Lawn",
        "wikidata": "Q34847604"
      },
      "geometry": {
        "type": "Point",
        "coordinates": [
          -73.7812438,
          40.9000995
        ]
      },
      "id": "node/357609053"
    },
    {
      "type": "Feature",
      "properties": {
        "@id": "node/357609237",
        "ele": "11",
        "gnis:county_id": "005",
        "gnis:created": "01/01/2000",
        "gnis:feature_id": "2062104",
        "gnis:state_id": "36",
        "leisure": "park",
        "name": "Gouverneur Morris Square"
      },
      "geometry": {
        "type": "Point",
        "coordinates": [
          -73.9123589,
          40.8048231
        ]
      },
      "id": "node/357609237"
    },
    {
      "type": "Feature",
      "properties": {
        "@id": "node/357609261",
        "ele": "9",
        "gnis:county_id": "005",
        "gnis:created": "01/01/2000",
        "gnis:feature_id": "2062120",
        "gnis:state_id": "36",
        "leisure": "park",
        "name": "Mott Haven Historic District"
      },
      "geometry": {
        "type": "Point",
        "coordinates": [
          -73.9243037,
          40.8109341
        ]
      },
      "id": "node/357609261"
    },
    {
      "type": "Feature",
      "properties": {
        "@id": "node/357609272",
        "addr:city": "Bronx",
        "addr:postcode": "10454",
        "addr:state": "NY",
        "addr:street": "East 136th Street",
        "ele": "15",
        "gnis:county_id": "005",
        "gnis:created": "01/01/2000",
        "gnis:feature_id": "2062122",
        "gnis:state_id": "36",
        "leisure": "park",
        "name": "Bertine Block Historic District",
        "website": "https://www.brickunderground.com/live/Bertine-block-Bronx"
      },
      "geometry": {
        "type": "Point",
        "coordinates": [
          -73.9228623,
          40.807339
        ]
      },
      "id": "node/357609272"
    },
    {
      "type": "Feature",
      "properties": {
        "@id": "node/357609276",
        "ele": "9",
        "gnis:county_id": "005",
        "gnis:created": "01/01/2000",
        "gnis:feature_id": "2062124",
        "gnis:state_id": "36",
        "leisure": "park",
        "name": "Mott Haven East Historic District"
      },
      "geometry": {
        "type": "Point",
        "coordinates": [
          -73.9206925,
          40.809823
        ]
      },
      "id": "node/357609276"
    },
    {
      "type": "Feature",
      "properties": {
        "@id": "node/357609306",
        "ele": "9",
        "gnis:county_id": "005",
        "gnis:created": "01/01/2000",
        "gnis:feature_id": "2062141",
        "gnis:state_id": "36",
        "leisure": "park",
        "name": "George Meade Plaza"
      },
      "geometry": {
        "type": "Point",
        "coordinates": [
          -73.911627,
          40.822238
        ]
      },
      "id": "node/357609306"
    },
    {
      "type": "Feature",
      "properties": {
        "@id": "node/357609309",
        "ele": "23",
        "gnis:county_id": "005",
        "gnis:created": "01/01/2000",
        "gnis:edited": "11/02/2007",
        "gnis:feature_id": "2062142",
        "gnis:state_id": "36",
        "leisure": "park",
        "name": "Charlton Garden",
        "wikidata": "Q34816574"
      },
      "geometry": {
        "type": "Point",
        "coordinates": [
          -73.9068031,
          40.8251006
        ]
      },
      "id": "node/357609309"
    },
    {
      "type": "Feature",
      "properties": {
        "@id": "node/357609312",
        "ele": "9",
        "gnis:county_id": "005",
        "gnis:created": "01/01/2000",
        "gnis:feature_id": "2062143",
        "gnis:state_id": "36",
        "leisure": "park",
        "name": "Clay Avenue Historic District",
        "wikidata": "Q34818236"
      },
      "geometry": {
        "type": "Point",
        "coordinates": [
          -73.9123588,
          40.8287116
        ]
      },
      "id": "node/357609312"
    },
    {
      "type": "Feature",
      "properties": {
        "@id": "node/357609315",
        "ele": "27",
        "gnis:county_id": "005",
        "gnis:created": "01/01/2000",
        "gnis:feature_id": "2062146",
        "gnis:state_id": "36",
        "leisure": "park",
        "name": "Morris High School Historic District"
      },
      "geometry": {
        "type": "Point",
        "coordinates": [
          -73.9029141,
          40.8276006
        ]
      },
      "id": "node/357609315"
    },
    {
      "type": "Feature",
      "properties": {
        "@id": "node/357609340",
        "ele": "15",
        "gnis:county_id": "005",
        "gnis:created": "01/01/2000",
        "gnis:feature_id": "2062177",
        "gnis:state_id": "36",
        "leisure": "park",
        "name": "Longwood Historic District"
      },
      "geometry": {
        "type": "Point",
        "coordinates": [
          -73.8993029,
          40.8173229
        ]
      },
      "id": "node/357609340"
    },
    {
      "type": "Feature",
      "properties": {
        "@id": "node/357609349",
        "ele": "13",
        "gnis:county_id": "005",
        "gnis:created": "01/01/2000",
        "gnis:feature_id": "2062186",
        "gnis:state_id": "36",
        "leisure": "park",
        "name": "Longfellow Gardens"
      },
      "geometry": {
        "type": "Point",
        "coordinates": [
          -73.8873581,
          40.8256562
        ]
      },
      "id": "node/357609349"
    },
    {
      "type": "Feature",
      "properties": {
        "@id": "node/357609352",
        "ele": "19",
        "gnis:county_id": "005",
        "gnis:created": "01/01/2000",
        "gnis:edited": "09/06/2005",
        "gnis:feature_id": "2062187",
        "gnis:state_id": "36",
        "leisure": "park",
        "name": "Benjamin Gladstone Square",
        "wikidata": "Q34806939"
      },
      "geometry": {
        "type": "Point",
        "coordinates": [
          -73.8906915,
          40.8253784
        ]
      },
      "id": "node/357609352"
    },
    {
      "type": "Feature",
      "properties": {
        "@id": "node/357609372",
        "ele": "17",
        "gnis:county_id": "119",
        "gnis:created": "01/01/2000",
        "gnis:feature_id": "2062231",
        "gnis:state_id": "36",
        "leisure": "park",
        "name": "September 11 Memorial Park"
      },
      "geometry": {
        "type": "Point",
        "coordinates": [
          -73.7876328,
          40.9248213
        ]
      },
      "id": "node/357609372"
    },
    {
      "type": "Feature",
      "properties": {
        "@id": "node/357609375",
        "ele": "22",
        "gnis:county_id": "119",
        "gnis:created": "01/01/2000",
        "gnis:feature_id": "2062232",
        "gnis:state_id": "36",
        "leisure": "park",
        "name": "Rice Oval",
        "wikidata": "Q34856684"
      },
      "geometry": {
        "type": "Point",
        "coordinates": [
          -73.7839083,
          40.9288753
        ]
      },
      "id": "node/357609375"
    },
    {
      "type": "Feature",
      "properties": {
        "@id": "node/357609379",
        "ele": "16",
        "gnis:county_id": "119",
        "gnis:created": "01/01/2000",
        "gnis:feature_id": "2062233",
        "gnis:state_id": "36",
        "leisure": "park",
        "name": "Mazzella Field"
      },
      "geometry": {
        "type": "Point",
        "coordinates": [
          -73.7854104,
          40.9267657
        ]
      },
      "id": "node/357609379"
    },
    {
      "type": "Feature",
      "properties": {
        "@id": "node/357609382",
        "ele": "63",
        "gnis:county_id": "119",
        "gnis:created": "01/01/2000",
        "gnis:feature_id": "2062234",
        "gnis:state_id": "36",
        "leisure": "park",
        "name": "Andrews Court"
      },
      "geometry": {
        "type": "Point",
        "coordinates": [
          -73.845412,
          40.9337099
        ]
      },
      "id": "node/357609382"
    },
    {
      "type": "Feature",
      "properties": {
        "@id": "node/357609392",
        "ele": "27",
        "gnis:county_id": "119",
        "gnis:created": "01/01/2000",
        "gnis:feature_id": "2062238",
        "gnis:state_id": "36",
        "leisure": "park",
        "name": "Andrus Park"
      },
      "geometry": {
        "type": "Point",
        "coordinates": [
          -73.8465231,
          40.9492653
        ]
      },
      "id": "node/357609392"
    },
    {
      "type": "Feature",
      "properties": {
        "@id": "node/357609405",
        "ele": "26",
        "gnis:county_id": "119",
        "gnis:created": "01/01/2000",
        "gnis:feature_id": "2062242",
        "gnis:state_id": "36",
        "leisure": "park",
        "name": "Beechmont Oval",
        "wikidata": "Q34806404"
      },
      "geometry": {
        "type": "Point",
        "coordinates": [
          -73.7834659,
          40.930099
        ]
      },
      "id": "node/357609405"
    },
    {
      "type": "Feature",
      "properties": {
        "@id": "node/357609408",
        "ele": "57",
        "gnis:county_id": "119",
        "gnis:created": "01/01/2000",
        "gnis:feature_id": "2062243",
        "gnis:state_id": "36",
        "leisure": "park",
        "name": "Bregano Park"
      },
      "geometry": {
        "type": "Point",
        "coordinates": [
          -73.8493011,
          40.9234323
        ]
      },
      "id": "node/357609408"
    },
    {
      "type": "Feature",
      "properties": {
        "@id": "node/357609419",
        "ele": "7",
        "gnis:county_id": "119",
        "gnis:created": "01/01/2000",
        "gnis:feature_id": "2062246",
        "gnis:state_id": "36",
        "leisure": "park",
        "name": "Columbus Park"
      },
      "geometry": {
        "type": "Point",
        "coordinates": [
          -73.7367977,
          40.9542652
        ]
      },
      "id": "node/357609419"
    },
    {
      "type": "Feature",
      "properties": {
        "@id": "node/357609425",
        "ele": "61",
        "gnis:county_id": "119",
        "gnis:created": "01/01/2000",
        "gnis:feature_id": "2062248",
        "gnis:state_id": "36",
        "leisure": "park",
        "name": "Coyne Park"
      },
      "geometry": {
        "type": "Point",
        "coordinates": [
          -73.8731907,
          40.9073214
        ]
      },
      "id": "node/357609425"
    },
    {
      "type": "Feature",
      "properties": {
        "@id": "node/357609431",
        "ele": "24",
        "gnis:county_id": "119",
        "gnis:created": "01/01/2000",
        "gnis:feature_id": "2062250",
        "gnis:state_id": "36",
        "leisure": "park",
        "name": "Culver Park"
      },
      "geometry": {
        "type": "Point",
        "coordinates": [
          -73.9000266,
          40.9197659
        ]
      },
      "id": "node/357609431"
    },
    {
      "type": "Feature",
      "properties": {
        "@id": "node/357609450",
        "ele": "13",
        "gnis:county_id": "119",
        "gnis:created": "01/01/2000",
        "gnis:feature_id": "2062256",
        "gnis:state_id": "36",
        "leisure": "park",
        "name": "Florence Street Park"
      },
      "geometry": {
        "type": "Point",
        "coordinates": [
          -73.7251306,
          40.9575984
        ]
      },
      "id": "node/357609450"
    },
    {
      "type": "Feature",
      "properties": {
        "@id": "node/357609453",
        "ele": "41",
        "gnis:county_id": "119",
        "gnis:created": "01/01/2000",
        "gnis:feature_id": "2062257",
        "gnis:state_id": "36",
        "leisure": "park",
        "name": "Fay Park"
      },
      "geometry": {
        "type": "Point",
        "coordinates": [
          -73.9037472,
          40.9148213
        ]
      },
      "id": "node/357609453"
    },
    {
      "type": "Feature",
      "properties": {
        "@id": "node/357609612",
        "ele": "49",
        "gnis:county_id": "119",
        "gnis:created": "01/01/2000",
        "gnis:feature_id": "2062363",
        "gnis:state_id": "36",
        "leisure": "park",
        "name": "Henning Park"
      },
      "geometry": {
        "type": "Point",
        "coordinates": [
          -73.8651348,
          40.9534318
        ]
      },
      "id": "node/357609612"
    },
    {
      "type": "Feature",
      "properties": {
        "@id": "node/357609616",
        "ele": "31",
        "gnis:county_id": "119",
        "gnis:created": "01/01/2000",
        "gnis:feature_id": "2062364",
        "gnis:state_id": "36",
        "leisure": "park",
        "name": "Hunt Woods Park"
      },
      "geometry": {
        "type": "Point",
        "coordinates": [
          -73.8273561,
          40.9300989
        ]
      },
      "id": "node/357609616"
    },
    {
      "type": "Feature",
      "properties": {
        "@id": "node/357609685",
        "ele": "1",
        "gnis:county_id": "119",
        "gnis:created": "01/01/2000",
        "gnis:feature_id": "2062428",
        "gnis:state_id": "36",
        "leisure": "park",
        "name": "Otter Creek Preserve"
      },
      "geometry": {
        "type": "Point",
        "coordinates": [
          -73.720686,
          40.9467653
        ]
      },
      "id": "node/357609685"
    },
    {
      "type": "Feature",
      "properties": {
        "@id": "node/357609718",
        "ele": "6",
        "gnis:county_id": "119",
        "gnis:created": "01/01/2000",
        "gnis:feature_id": "2062438",
        "gnis:state_id": "36",
        "leisure": "park",
        "name": "Rye Town Park"
      },
      "geometry": {
        "type": "Point",
        "coordinates": [
          -73.6806843,
          40.9612093
        ]
      },
      "id": "node/357609718"
    },
    {
      "type": "Feature",
      "properties": {
        "@id": "node/357609725",
        "ele": "42",
        "gnis:county_id": "119",
        "gnis:created": "01/01/2000",
        "gnis:feature_id": "2062440",
        "gnis:state_id": "36",
        "leisure": "park",
        "name": "Sunnybrook Park"
      },
      "geometry": {
        "type": "Point",
        "coordinates": [
          -73.8481899,
          40.9359321
        ]
      },
      "id": "node/357609725"
    },
    {
      "type": "Feature",
      "properties": {
        "@id": "node/357609728",
        "ele": "33",
        "gnis:county_id": "119",
        "gnis:created": "01/01/2000",
        "gnis:feature_id": "2062441",
        "gnis:state_id": "36",
        "leisure": "park",
        "name": "Sycamore Park"
      },
      "geometry": {
        "type": "Point",
        "coordinates": [
          -73.7948552,
          40.9023216
        ]
      },
      "id": "node/357609728"
    },
    {
      "type": "Feature",
      "properties": {
        "@id": "node/357609747",
        "ele": "27",
        "gnis:county_id": "119",
        "gnis:created": "01/01/2000",
        "gnis:feature_id": "2062447",
        "gnis:state_id": "36",
        "leisure": "park",
        "name": "Vark Street Park"
      },
      "geometry": {
        "type": "Point",
        "coordinates": [
          -73.8993025,
          40.9295432
        ]
      },
      "id": "node/357609747"
    },
    {
      "type": "Feature",
      "properties": {
        "@id": "node/357609888",
        "ele": "55",
        "gnis:county_id": "119",
        "gnis:created": "01/01/2000",
        "gnis:feature_id": "2062564",
        "gnis:state_id": "36",
        "leisure": "park",
        "name": "Hillside Park Playground"
      },
      "geometry": {
        "type": "Point",
        "coordinates": [
          -73.8737462,
          40.9492652
        ]
      },
      "id": "node/357609888"
    },
    {
      "type": "Feature",
      "properties": {
        "@id": "node/357610363",
        "ele": "23",
        "gnis:county_id": "119",
        "gnis:created": "01/01/2000",
        "gnis:feature_id": "2063041",
        "gnis:state_id": "36",
        "leisure": "park",
        "name": "Parkway Field"
      },
      "geometry": {
        "type": "Point",
        "coordinates": [
          -73.8334673,
          40.9337099
        ]
      },
      "id": "node/357610363"
    },
    {
      "type": "Feature",
      "properties": {
        "@id": "node/357610370",
        "ele": "6",
        "gnis:county_id": "119",
        "gnis:created": "01/01/2000",
        "gnis:feature_id": "2063046",
        "gnis:state_id": "36",
        "leisure": "park",
        "name": "Aiello Park",
        "wikidata": "Q34802187"
      },
      "geometry": {
        "type": "Point",
        "coordinates": [
          -73.7740213,
          40.9025995
        ]
      },
      "id": "node/357610370"
    },
    {
      "type": "Feature",
      "properties": {
        "@id": "node/357610376",
        "ele": "0",
        "gnis:county_id": "119",
        "gnis:created": "01/01/2000",
        "gnis:feature_id": "2063048",
        "gnis:state_id": "36",
        "leisure": "park",
        "name": "Five Islands Park"
      },
      "geometry": {
        "type": "Point",
        "coordinates": [
          -73.7657068,
          40.9109742
        ]
      },
      "id": "node/357610376"
    },
    {
      "type": "Feature",
      "properties": {
        "@id": "node/357610379",
        "ele": "13",
        "gnis:county_id": "119",
        "gnis:created": "01/01/2000",
        "gnis:feature_id": "2063049",
        "gnis:state_id": "36",
        "leisure": "park",
        "name": "Flowers Park"
      },
      "geometry": {
        "type": "Point",
        "coordinates": [
          -73.7720767,
          40.9309323
        ]
      },
      "id": "node/357610379"
    },
    {
      "type": "Feature",
      "properties": {
        "@id": "node/357610384",
        "ele": "21",
        "gnis:county_id": "119",
        "gnis:created": "01/01/2000",
        "gnis:feature_id": "2063050",
        "gnis:state_id": "36",
        "leisure": "park",
        "name": "Huguenot Park",
        "wikidata": "Q34836844"
      },
      "geometry": {
        "type": "Point",
        "coordinates": [
          -73.7912439,
          40.9298212
        ]
      },
      "id": "node/357610384"
    },
    {
      "type": "Feature",
      "properties": {
        "@id": "node/357610390",
        "ele": "7",
        "gnis:county_id": "119",
        "gnis:created": "01/01/2000",
        "gnis:feature_id": "2063052",
        "gnis:state_id": "36",
        "leisure": "park",
        "name": "Stephenson Park"
      },
      "geometry": {
        "type": "Point",
        "coordinates": [
          -73.7734657,
          40.9184325
        ]
      },
      "id": "node/357610390"
    },
    {
      "type": "Feature",
      "properties": {
        "@id": "node/357610393",
        "ele": "14",
        "gnis:county_id": "119",
        "gnis:created": "01/01/2000",
        "gnis:feature_id": "2063053",
        "gnis:state_id": "36",
        "leisure": "park",
        "name": "The Lawn",
        "wikidata": "Q34864867"
      },
      "geometry": {
        "type": "Point",
        "coordinates": [
          -73.7829104,
          40.9184325
        ]
      },
      "id": "node/357610393"
    },
    {
      "type": "Feature",
      "properties": {
        "@id": "node/357610485",
        "ele": "2",
        "gnis:county_id": "119",
        "gnis:created": "01/01/2000",
        "gnis:feature_id": "2063148",
        "gnis:state_id": "36",
        "leisure": "park",
        "name": "Larkin Plaza"
      },
      "geometry": {
        "type": "Point",
        "coordinates": [
          -73.901247,
          40.9353765
        ]
      },
      "id": "node/357610485"
    },
    {
      "type": "Feature",
      "properties": {
        "@id": "node/357610491",
        "ele": "25",
        "gnis:county_id": "119",
        "gnis:created": "01/01/2000",
        "gnis:feature_id": "2063149",
        "gnis:state_id": "36",
        "leisure": "park",
        "name": "Washington Park"
      },
      "geometry": {
        "type": "Point",
        "coordinates": [
          -73.8970802,
          40.9325988
        ]
      },
      "id": "node/357610491"
    },
    {
      "type": "Feature",
      "properties": {
        "@id": "node/357610563",
        "ele": "9",
        "gnis:county_id": "061",
        "gnis:created": "01/01/2000",
        "gnis:feature_id": "2063261",
        "gnis:state_id": "36",
        "leisure": "park",
        "name": "Chatham Square",
        "wikidata": "Q34816834"
      },
      "geometry": {
        "type": "Point",
        "coordinates": [
          -73.9986111,
          40.7133333
        ]
      },
      "id": "node/357610563"
    },
    {
      "type": "Feature",
      "properties": {
        "@id": "node/357611232",
        "ele": "37",
        "gnis:county_id": "005",
        "gnis:created": "10/03/2005",
        "gnis:feature_id": "2072328",
        "gnis:state_id": "36",
        "leisure": "park",
        "name": "George Farkas Square"
      },
      "geometry": {
        "type": "Point",
        "coordinates": [
          -73.8980582,
          40.8624568
        ]
      },
      "id": "node/357611232"
    },
    {
      "type": "Feature",
      "properties": {
        "@id": "node/357611375",
        "ele": "16",
        "gnis:county_id": "005",
        "gnis:created": "10/03/2005",
        "gnis:feature_id": "2072428",
        "gnis:state_id": "36",
        "leisure": "park",
        "name": "Keltch Memorial Park"
      },
      "geometry": {
        "type": "Point",
        "coordinates": [
          -73.9183333,
          40.84
        ]
      },
      "id": "node/357611375"
    },
    {
      "type": "Feature",
      "properties": {
        "@id": "node/357611378",
        "ele": "28",
        "gnis:county_id": "005",
        "gnis:created": "10/03/2005",
        "gnis:feature_id": "2072429",
        "gnis:state_id": "36",
        "leisure": "park",
        "name": "McKinley Square",
        "wikidata": "Q34848229"
      },
      "geometry": {
        "type": "Point",
        "coordinates": [
          -73.9008333,
          40.8311111
        ]
      },
      "id": "node/357611378"
    },
    {
      "type": "Feature",
      "properties": {
        "@id": "node/357611466",
        "ele": "19",
        "gnis:county_id": "005",
        "gnis:created": "10/03/2005",
        "gnis:feature_id": "2072474",
        "gnis:state_id": "36",
        "leisure": "park",
        "name": "Lou Gehrig Plaza"
      },
      "geometry": {
        "type": "Point",
        "coordinates": [
          -73.9234504,
          40.8270722
        ]
      },
      "id": "node/357611466"
    },
    {
      "type": "Feature",
      "properties": {
        "@id": "node/357611471",
        "ele": "9",
        "gnis:county_id": "005",
        "gnis:created": "10/03/2005",
        "gnis:edited": "11/02/2007",
        "gnis:feature_id": "2072475",
        "gnis:state_id": "36",
        "leisure": "park",
        "name": "O'Neill Triangle"
      },
      "geometry": {
        "type": "Point",
        "coordinates": [
          -73.9113889,
          40.8236111
        ]
      },
      "id": "node/357611471"
    },
    {
      "type": "Feature",
      "properties": {
        "@id": "node/357611648",
        "ele": "36",
        "gnis:county_id": "005",
        "gnis:created": "10/03/2005",
        "gnis:feature_id": "2072558",
        "gnis:state_id": "36",
        "leisure": "park",
        "name": "University Woods Park",
        "wikidata": "Q7894982"
      },
      "geometry": {
        "type": "Point",
        "coordinates": [
          -73.915,
          40.8591667
        ]
      },
      "id": "node/357611648"
    },
    {
      "type": "Feature",
      "properties": {
        "@id": "node/357611935",
        "ele": "17",
        "gnis:county_id": "005",
        "gnis:created": "10/26/2005",
        "gnis:edited": "09/05/2007",
        "gnis:feature_id": "2073254",
        "gnis:state_id": "36",
        "leisure": "park",
        "name": "Sheridan Triangle"
      },
      "geometry": {
        "type": "Point",
        "coordinates": [
          -73.8966667,
          40.9047222
        ]
      },
      "id": "node/357611935"
    },
    {
      "type": "Feature",
      "properties": {
        "@id": "node/357612096",
        "ele": "43",
        "gnis:county_id": "005",
        "gnis:created": "10/28/2005",
        "gnis:edited": "11/02/2007",
        "gnis:feature_id": "2073610",
        "gnis:state_id": "36",
        "leisure": "park",
        "name": "Barnhill Triangle",
        "wikidata": "Q34804837"
      },
      "geometry": {
        "type": "Point",
        "coordinates": [
          -73.8997222,
          40.8680556
        ]
      },
      "id": "node/357612096"
    },
    {
      "type": "Feature",
      "properties": {
        "@id": "node/357612099",
        "ele": "29",
        "gnis:county_id": "005",
        "gnis:created": "10/28/2005",
        "gnis:feature_id": "2073611",
        "gnis:state_id": "36",
        "leisure": "park",
        "name": "Columbus Square",
        "wikidata": "Q34819389"
      },
      "geometry": {
        "type": "Point",
        "coordinates": [
          -73.8883333,
          40.8580556
        ]
      },
      "id": "node/357612099"
    },
    {
      "type": "Feature",
      "properties": {
        "@id": "node/357612210",
        "ele": "15",
        "gnis:county_id": "005",
        "gnis:created": "10/27/2005",
        "gnis:edited": "11/02/2007",
        "gnis:feature_id": "2073654",
        "gnis:state_id": "36",
        "leisure": "park",
        "name": "Horseshoe Park"
      },
      "geometry": {
        "type": "Point",
        "coordinates": [
          -73.8977778,
          40.8238889
        ]
      },
      "id": "node/357612210"
    },
    {
      "type": "Feature",
      "properties": {
        "@id": "node/357612213",
        "ele": "8",
        "gnis:county_id": "005",
        "gnis:created": "10/28/2005",
        "gnis:feature_id": "2073656",
        "gnis:state_id": "36",
        "leisure": "park",
        "name": "Corporal Walter J Fufidio Square",
        "wikidata": "Q34820021"
      },
      "geometry": {
        "type": "Point",
        "coordinates": [
          -73.8913889,
          40.8136111
        ]
      },
      "id": "node/357612213"
    },
    {
      "type": "Feature",
      "properties": {
        "@id": "node/357612217",
        "ele": "18",
        "gnis:county_id": "005",
        "gnis:created": "10/28/2005",
        "gnis:edited": "11/02/2007",
        "gnis:feature_id": "2073657",
        "gnis:state_id": "36",
        "leisure": "park",
        "name": "Bryant Triangle",
        "wikidata": "Q34811680"
      },
      "geometry": {
        "type": "Point",
        "coordinates": [
          -73.8886111,
          40.8266667
        ]
      },
      "id": "node/357612217"
    },
    {
      "type": "Feature",
      "properties": {
        "@id": "node/357612277",
        "ele": "2",
        "gnis:county_id": "005",
        "gnis:created": "10/28/2005",
        "gnis:feature_id": "2073681",
        "gnis:state_id": "36",
        "leisure": "park",
        "name": "Kane's Park",
        "wikidata": "Q34839687"
      },
      "geometry": {
        "type": "Point",
        "coordinates": [
          -73.8505556,
          40.8075
        ]
      },
      "id": "node/357612277"
    },
    {
      "type": "Feature",
      "properties": {
        "@id": "node/357612477",
        "ele": "12",
        "gnis:county_id": "005",
        "gnis:created": "10/28/2005",
        "gnis:edited": "08/10/2007",
        "gnis:feature_id": "2073744",
        "gnis:state_id": "36",
        "leisure": "park",
        "name": "Church Triangle",
        "wikidata": "Q34817780"
      },
      "geometry": {
        "type": "Point",
        "coordinates": [
          -73.8505556,
          40.8297222
        ]
      },
      "id": "node/357612477"
    },
    {
      "type": "Feature",
      "properties": {
        "@id": "node/357612520",
        "ele": "4",
        "gnis:county_id": "005",
        "gnis:created": "10/28/2005",
        "gnis:feature_id": "2073759",
        "gnis:state_id": "36",
        "leisure": "park",
        "name": "Castle Hill Little League Park",
        "wikidata": "Q34814856"
      },
      "geometry": {
        "type": "Point",
        "coordinates": [
          -73.8447222,
          40.8325
        ]
      },
      "id": "node/357612520"
    },
    {
      "type": "Feature",
      "properties": {
        "@id": "node/357612523",
        "ele": "16",
        "gnis:county_id": "005",
        "gnis:created": "10/28/2005",
        "gnis:feature_id": "2073760",
        "gnis:state_id": "36",
        "leisure": "park",
        "name": "Metropolitan Oval",
        "wikidata": "Q6825173"
      },
      "geometry": {
        "type": "Point",
        "coordinates": [
          -73.86,
          40.8383333
        ]
      },
      "id": "node/357612523"
    },
    {
      "type": "Feature",
      "properties": {
        "@id": "node/357612527",
        "ele": "10",
        "gnis:county_id": "005",
        "gnis:created": "10/28/2005",
        "gnis:feature_id": "2073761",
        "gnis:state_id": "36",
        "leisure": "park",
        "name": "Westchester Square"
      },
      "geometry": {
        "type": "Point",
        "coordinates": [
          -73.8430556,
          40.8408333
        ]
      },
      "id": "node/357612527"
    },
    {
      "type": "Feature",
      "properties": {
        "@id": "node/357612599",
        "ele": "33",
        "gnis:county_id": "005",
        "gnis:created": "10/28/2005",
        "gnis:feature_id": "2073890",
        "gnis:state_id": "36",
        "leisure": "park",
        "name": "Zimmerman Memorial Playground"
      },
      "geometry": {
        "type": "Point",
        "coordinates": [
          -73.8686111,
          40.8658333
        ]
      },
      "id": "node/357612599"
    },
    {
      "type": "Feature",
      "properties": {
        "@id": "node/357612619",
        "ele": "6",
        "gnis:county_id": "005",
        "gnis:created": "10/28/2005",
        "gnis:edited": "08/10/2007",
        "gnis:feature_id": "2073905",
        "gnis:state_id": "36",
        "leisure": "park",
        "name": "Schneider-Sampson Park"
      },
      "geometry": {
        "type": "Point",
        "coordinates": [
          -73.8257236,
          40.8362069
        ]
      },
      "id": "node/357612619"
    },
    {
      "type": "Feature",
      "properties": {
        "@id": "node/357614550",
        "ele": "25",
        "gnis:county_id": "005",
        "gnis:created": "10/28/2005",
        "gnis:edited": "08/10/2007",
        "gnis:feature_id": "2074883",
        "gnis:state_id": "36",
        "leisure": "park",
        "name": "Eastchester Playground",
        "wikidata": "Q34827087"
      },
      "geometry": {
        "type": "Point",
        "coordinates": [
          -73.8527778,
          40.8697222
        ]
      },
      "id": "node/357614550"
    },
    {
      "type": "Feature",
      "properties": {
        "@id": "node/357614556",
        "ele": "3",
        "gnis:county_id": "005",
        "gnis:created": "06/12/2006",
        "gnis:edited": "08/10/2007",
        "gnis:feature_id": "2074885",
        "gnis:state_id": "36",
        "leisure": "park",
        "name": "Bicentennial Veterans Park At Weir Creek",
        "wikidata": "Q34807422"
      },
      "geometry": {
        "type": "Point",
        "coordinates": [
          -73.8144444,
          40.8238889
        ]
      },
      "id": "node/357614556"
    },
    {
      "type": "Feature",
      "properties": {
        "@id": "node/357614562",
        "ele": "29",
        "gnis:county_id": "005",
        "gnis:created": "10/28/2005",
        "gnis:feature_id": "2074918",
        "gnis:state_id": "36",
        "leisure": "park",
        "name": "Edwards Parade",
        "wikidata": "Q34827923"
      },
      "geometry": {
        "type": "Point",
        "coordinates": [
          -73.8849882,
          40.8611723
        ]
      },
      "id": "node/357614562"
    },
    {
      "type": "Feature",
      "properties": {
        "@id": "node/357614565",
        "ele": "31",
        "gnis:county_id": "005",
        "gnis:created": "10/28/2005",
        "gnis:feature_id": "2074919",
        "gnis:state_id": "36",
        "leisure": "park",
        "name": "Jack Coffey Field"
      },
      "geometry": {
        "type": "Point",
        "coordinates": [
          -73.8828954,
          40.8614321
        ]
      },
      "id": "node/357614565"
    },
    {
      "type": "Feature",
      "properties": {
        "@id": "node/357614570",
        "ele": "25",
        "gnis:county_id": "005",
        "gnis:created": "06/12/2006",
        "gnis:feature_id": "2074921",
        "gnis:state_id": "36",
        "leisure": "park",
        "name": "Queen's Court"
      },
      "geometry": {
        "type": "Point",
        "coordinates": [
          -73.8870531,
          40.863351
        ]
      },
      "id": "node/357614570"
    },
    {
      "type": "Feature",
      "properties": {
        "@id": "node/357614573",
        "ele": "23",
        "gnis:county_id": "059",
        "gnis:created": "06/12/2006",
        "gnis:feature_id": "2074937",
        "gnis:state_id": "36",
        "leisure": "park",
        "name": "Stiles Athletic Field"
      },
      "geometry": {
        "type": "Point",
        "coordinates": [
          -73.65,
          40.7194444
        ]
      },
      "id": "node/357614573"
    },
    {
      "type": "Feature",
      "properties": {
        "@id": "node/357614582",
        "ele": "16",
        "gnis:county_id": "059",
        "gnis:created": "10/27/2005",
        "gnis:feature_id": "2075020",
        "gnis:state_id": "36",
        "leisure": "park",
        "name": "Amphitrite Pool"
      },
      "geometry": {
        "type": "Point",
        "coordinates": [
          -73.7616667,
          40.8122222
        ]
      },
      "id": "node/357614582"
    },
    {
      "type": "Feature",
      "properties": {
        "@id": "node/357614586",
        "ele": "16",
        "gnis:county_id": "059",
        "gnis:created": "10/28/2005",
        "gnis:feature_id": "2075021",
        "gnis:state_id": "36",
        "leisure": "park",
        "name": "Brooks Stadium"
      },
      "geometry": {
        "type": "Point",
        "coordinates": [
          -73.7583333,
          40.8133333
        ]
      },
      "id": "node/357614586"
    },
    {
      "type": "Feature",
      "properties": {
        "@id": "node/357614589",
        "ele": "5",
        "gnis:county_id": "059",
        "gnis:created": "10/28/2005",
        "gnis:feature_id": "2075022",
        "gnis:state_id": "36",
        "leisure": "park",
        "name": "Eldridge Pool"
      },
      "geometry": {
        "type": "Point",
        "coordinates": [
          -73.7638889,
          40.8122222
        ]
      },
      "id": "node/357614589"
    },
    {
      "type": "Feature",
      "properties": {
        "@id": "node/357614592",
        "ele": "13",
        "gnis:county_id": "059",
        "gnis:created": "10/28/2005",
        "gnis:feature_id": "2075023",
        "gnis:state_id": "36",
        "leisure": "park",
        "name": "Lower Roosevelt Field"
      },
      "geometry": {
        "type": "Point",
        "coordinates": [
          -73.7563889,
          40.8138889
        ]
      },
      "id": "node/357614592"
    },
    {
      "type": "Feature",
      "properties": {
        "@id": "node/357614596",
        "ele": "17",
        "gnis:county_id": "059",
        "gnis:created": "06/12/2006",
        "gnis:feature_id": "2075024",
        "gnis:state_id": "36",
        "leisure": "park",
        "name": "Tomb Memorial Field"
      },
      "geometry": {
        "type": "Point",
        "coordinates": [
          -73.7588889,
          40.8136111
        ]
      },
      "id": "node/357614596"
    },
    {
      "type": "Feature",
      "properties": {
        "@id": "node/357614599",
        "ele": "16",
        "gnis:county_id": "059",
        "gnis:created": "06/12/2006",
        "gnis:feature_id": "2075025",
        "gnis:state_id": "36",
        "leisure": "park",
        "name": "Upper Roosevelt Field"
      },
      "geometry": {
        "type": "Point",
        "coordinates": [
          -73.7569444,
          40.8130556
        ]
      },
      "id": "node/357614599"
    },
    {
      "type": "Feature",
      "properties": {
        "@id": "node/357614605",
        "ele": "50",
        "gnis:county_id": "059",
        "gnis:created": "10/28/2005",
        "gnis:feature_id": "2075051",
        "gnis:state_id": "36",
        "leisure": "park",
        "name": "Hickox Field"
      },
      "geometry": {
        "type": "Point",
        "coordinates": [
          -73.5897222,
          40.8163889
        ]
      },
      "id": "node/357614605"
    },
    {
      "type": "Feature",
      "properties": {
        "@id": "node/357614608",
        "ele": "55",
        "gnis:county_id": "059",
        "gnis:created": "06/12/2006",
        "gnis:feature_id": "2075052",
        "gnis:state_id": "36",
        "leisure": "park",
        "name": "Riggs Park"
      },
      "geometry": {
        "type": "Point",
        "coordinates": [
          -73.5936111,
          40.8194444
        ]
      },
      "id": "node/357614608"
    },
    {
      "type": "Feature",
      "properties": {
        "@id": "node/357614611",
        "ele": "55",
        "gnis:county_id": "059",
        "gnis:created": "06/12/2006",
        "gnis:feature_id": "2075053",
        "gnis:state_id": "36",
        "leisure": "park",
        "name": "Stecklow Gardens"
      },
      "geometry": {
        "type": "Point",
        "coordinates": [
          -73.5947222,
          40.82
        ]
      },
      "id": "node/357614611"
    },
    {
      "type": "Feature",
      "properties": {
        "@id": "node/357614651",
        "ele": "3",
        "gnis:county_id": "059",
        "gnis:created": "10/28/2005",
        "gnis:feature_id": "2075773",
        "gnis:state_id": "36",
        "leisure": "park",
        "name": "Bar Beach Town Park"
      },
      "geometry": {
        "type": "Point",
        "coordinates": [
          -73.6527778,
          40.8277778
        ]
      },
      "id": "node/357614651"
    },
    {
      "type": "Feature",
      "properties": {
        "@id": "node/357614661",
        "ele": "6",
        "gnis:county_id": "059",
        "gnis:created": "10/28/2005",
        "gnis:feature_id": "2075776",
        "gnis:state_id": "36",
        "leisure": "park",
        "name": "Brookside Preserve"
      },
      "geometry": {
        "type": "Point",
        "coordinates": [
          -73.6025,
          40.6583333
        ]
      },
      "id": "node/357614661"
    },
    {
      "type": "Feature",
      "properties": {
        "@id": "node/357614665",
        "ele": "68",
        "gnis:county_id": "059",
        "gnis:created": "10/28/2005",
        "gnis:feature_id": "2075777",
        "gnis:state_id": "36",
        "leisure": "park",
        "name": "Brookville Nature Park"
      },
      "geometry": {
        "type": "Point",
        "coordinates": [
          -73.5452778,
          40.8111111
        ]
      },
      "id": "node/357614665"
    },
    {
      "type": "Feature",
      "properties": {
        "@id": "node/357614671",
        "ele": "12",
        "gnis:county_id": "059",
        "gnis:created": "10/28/2005",
        "gnis:feature_id": "2075778",
        "gnis:state_id": "36",
        "leisure": "park",
        "name": "Centennial Park"
      },
      "geometry": {
        "type": "Point",
        "coordinates": [
          -73.5886111,
          40.6783333
        ]
      },
      "id": "node/357614671"
    },
    {
      "type": "Feature",
      "properties": {
        "@id": "node/357614674",
        "ele": "1",
        "gnis:county_id": "059",
        "gnis:created": "10/28/2005",
        "gnis:feature_id": "2075779",
        "gnis:state_id": "36",
        "leisure": "park",
        "name": "Centre Island Town Park"
      },
      "geometry": {
        "type": "Point",
        "coordinates": [
          -73.5341667,
          40.91
        ]
      },
      "id": "node/357614674"
    },
    {
      "type": "Feature",
      "properties": {
        "@id": "node/357614677",
        "ele": "49",
        "gnis:county_id": "059",
        "gnis:created": "10/28/2005",
        "gnis:feature_id": "2075780",
        "gnis:state_id": "36",
        "leisure": "park",
        "name": "Christopher Morley County Park"
      },
      "geometry": {
        "type": "Point",
        "coordinates": [
          -73.6608333,
          40.7841667
        ]
      },
      "id": "node/357614677"
    },
    {
      "type": "Feature",
      "properties": {
        "@id": "node/357614680",
        "ele": "37",
        "gnis:county_id": "059",
        "gnis:created": "10/28/2005",
        "gnis:feature_id": "2075781",
        "gnis:state_id": "36",
        "leisure": "park",
        "name": "Creek Park"
      },
      "geometry": {
        "type": "Point",
        "coordinates": [
          -73.725,
          40.7819444
        ]
      },
      "id": "node/357614680"
    },
    {
      "type": "Feature",
      "properties": {
        "@id": "node/357614684",
        "ele": "12",
        "gnis:county_id": "059",
        "gnis:created": "10/28/2005",
        "gnis:feature_id": "2075782",
        "gnis:state_id": "36",
        "leisure": "park",
        "name": "Dutch Broadway Park"
      },
      "geometry": {
        "type": "Point",
        "coordinates": [
          -73.7194444,
          40.6941667
        ]
      },
      "id": "node/357614684"
    },
    {
      "type": "Feature",
      "properties": {
        "@id": "node/357614690",
        "ele": "33",
        "gnis:county_id": "059",
        "gnis:created": "10/28/2005",
        "gnis:feature_id": "2075784",
        "gnis:state_id": "36",
        "leisure": "park",
        "name": "Flower Hill Park"
      },
      "geometry": {
        "type": "Point",
        "coordinates": [
          -73.6783333,
          40.8102778
        ]
      },
      "id": "node/357614690"
    },
    {
      "type": "Feature",
      "properties": {
        "@id": "node/357614697",
        "ele": "22",
        "gnis:county_id": "059",
        "gnis:created": "10/28/2005",
        "gnis:feature_id": "2075786",
        "gnis:state_id": "36",
        "leisure": "park",
        "name": "Hempstead Plains Preserve"
      },
      "geometry": {
        "type": "Point",
        "coordinates": [
          -73.5810732,
          40.7194382
        ]
      },
      "id": "node/357614697"
    },
    {
      "type": "Feature",
      "properties": {
        "@id": "node/357614703",
        "ele": "2",
        "gnis:county_id": "059",
        "gnis:created": "10/28/2005",
        "gnis:feature_id": "2075789",
        "gnis:state_id": "36",
        "leisure": "park",
        "name": "Hewlett Point Park"
      },
      "geometry": {
        "type": "Point",
        "coordinates": [
          -73.6736111,
          40.6288889
        ]
      },
      "id": "node/357614703"
    },
    {
      "type": "Feature",
      "properties": {
        "@id": "node/357614706",
        "ele": "57",
        "gnis:county_id": "059",
        "gnis:created": "10/28/2005",
        "gnis:feature_id": "2075790",
        "gnis:state_id": "36",
        "leisure": "park",
        "name": "Hoffman Center Nature Preserve"
      },
      "geometry": {
        "type": "Point",
        "coordinates": [
          -73.5519444,
          40.8372222
        ]
      },
      "id": "node/357614706"
    },
    {
      "type": "Feature",
      "properties": {
        "@id": "node/357614711",
        "ele": "18",
        "gnis:county_id": "059",
        "gnis:created": "10/28/2005",
        "gnis:feature_id": "2075792",
        "gnis:state_id": "36",
        "leisure": "park",
        "name": "Leeds Pond Preserve"
      },
      "geometry": {
        "type": "Point",
        "coordinates": [
          -73.7013889,
          40.8161111
        ]
      },
      "id": "node/357614711"
    },
    {
      "type": "Feature",
      "properties": {
        "@id": "node/357614717",
        "ele": "1",
        "gnis:county_id": "059",
        "gnis:created": "10/28/2005",
        "gnis:feature_id": "2075793",
        "gnis:state_id": "36",
        "leisure": "park",
        "name": "Lido Boulevard Park"
      },
      "geometry": {
        "type": "Point",
        "coordinates": [
          -73.6166667,
          40.5886111
        ]
      },
      "id": "node/357614717"
    },
    {
      "type": "Feature",
      "properties": {
        "@id": "node/357614722",
        "ele": "0",
        "gnis:county_id": "059",
        "gnis:created": "10/28/2005",
        "gnis:feature_id": "2075794",
        "gnis:state_id": "36",
        "leisure": "park",
        "name": "Lido West Town Park"
      },
      "geometry": {
        "type": "Point",
        "coordinates": [
          -73.6294444,
          40.5863889
        ]
      },
      "id": "node/357614722"
    },
    {
      "type": "Feature",
      "properties": {
        "@id": "node/357614725",
        "ele": "17",
        "gnis:county_id": "059",
        "gnis:created": "10/28/2005",
        "gnis:feature_id": "2075795",
        "gnis:state_id": "36",
        "leisure": "park",
        "name": "Lincoln Park"
      },
      "geometry": {
        "type": "Point",
        "coordinates": [
          -73.6208333,
          40.6966667
        ]
      },
      "id": "node/357614725"
    },
    {
      "type": "Feature",
      "properties": {
        "@id": "node/357614728",
        "ele": "5",
        "gnis:county_id": "059",
        "gnis:created": "10/28/2005",
        "gnis:feature_id": "2075796",
        "gnis:state_id": "36",
        "leisure": "park",
        "name": "Manhasset Valley Park"
      },
      "geometry": {
        "type": "Point",
        "coordinates": [
          -73.7073631,
          40.7903789
        ]
      },
      "id": "node/357614728"
    },
    {
      "type": "Feature",
      "properties": {
        "@id": "node/357614734",
        "ele": "3",
        "gnis:county_id": "059",
        "gnis:created": "10/28/2005",
        "gnis:feature_id": "2075798",
        "gnis:state_id": "36",
        "leisure": "park",
        "name": "Manorhaven Beach Town Park"
      },
      "geometry": {
        "type": "Point",
        "coordinates": [
          -73.7116667,
          40.8411111
        ]
      },
      "id": "node/357614734"
    },